 {
          "type": "FeatureCollection",
          "features": [
            {
             "type": "Feature",
              "geometry": {
                "type": "Point",
                "coordinates": [
                  -77.5940059,
                  43.077969
                ]
              },
            "properties": {
              "name": "School of the Holy Childhood",
              "phoneFormatted": "(585) 359-3710",
              "phone": "5853593710",
              "address": "100 Groton PKWY",
              "city": "Rochester",
              "country": "United States",
              "postalCode": "14623",
              "state": "NY",
              "hours": "Office: M-F 8:30 a.m. - 4:30 p.m.",
              "url": "http://holychildhood.org",
              "icon": "icons/disability.png",
              "info": "The Holy Childhood is a non-denominational, non-profit agency that prepares children and adults with developmental disabilities for maximum independence and integration in the community through individualized programs and services. Programs and services include a school program, sheltered employment, transional dayhab, and a health center. <br><span style=\"font-weight: bold;\">Eligibility:<\/span>Serves children and adults with developmental disabilities."
              }
            },
            {
              "type": "Feature",
              "geometry": {
                "type": "Point",
                "coordinates": [
                  -77.641304,
                  43.17958
                ]
              },
             "properties": {
                "name": "Mary's Place Outreach",
                "phoneFormatted": " (585) 270-8626",
                "phone": "5852708826",
                "address": "Bldg. A 414 Lexington Ave",
                "city": "Rochester",
                "country": "United States",
                "postalCode": "14613",
                "state": "NY",
                "hours": "M-F 12:00 p/m/ - 5:00 p.m.",
                "url": "http://marysplaceoutreach.org",
                "icon": "icons/world.png",
                "info": "Mary’s Place is a refugee outreach center that serves newly arrived Americans from many different countries, including Burma, Nepal, Bhutan, Somalia and Sudan. Services include case management, ESOL classes, job training, food and clothing distribution, and after-school tutoring.<br><span style=\"font-weight: bold;\">Eligibility:<\/span> Serves refugees of all faiths and nationalities."
              }
            },
            {
              "type": "Feature",
              "geometry": {
                "type": "Point",
                "coordinates": [
                  -77.61846789999998,
                  43.171582
                ]
              },
             "properties": {
                "name": "Early Head Start and Head Start",
                "phoneFormatted": "(585) 254-0093",
                "phone": "5852540093",
                "address": "30 Hart Street",
                "city": "Rochester",
                "country": "United States",
                "postalCode": "14605",
                "state": "NY",
                "hours": "Early Head Start: M-F 9:00 a.m. - 3:30 p.m. <br> Head Start, half day: M-Th 8:30 a.m. - 11:30 a.m. <br> Head start, full day: M-F 9:00 a.m. - 3:30 p.m.",
                "url": "http://www.abcinfo.org",
                "icon": "icons/school.png",
                "info": "Head Start is a free early education program serving low income pregnant women and children from birth to 5 years old. Children receive health, hearing, vision, developmental and behavioral screening upon enrollment.<br><span style=\"font-weight: bold;\">Eligibility:<\/span> Must meet income requirements (below federal poverty level). <br><a href=\"http://www.abcinfo.org/head-start/recruitment-app\">Application<\/a>"
              }
            },
            {
              "type": "Feature",
              "geometry": {
                "type": "Point",
                "coordinates": [
                  -77.59583300000003,
                  43.17066999999999
                ]
              },
             "properties": {
                "name": "Early Head Start and Head Start",
                "phoneFormatted": "(585) 454-2332",
                "phone": "5854542332",
                "address": "700 North Street",
                "city": "Rochester",
                "country": "United States",
                "postalCode": "14605",
                "state": "NY",
                "hours": "Early Head Start: 9:00 a.m. - 3:30 p.m. M-F <br> Head Start, half day: 8:30 a.m. - 11:30 a.m. M-Th <br> Head start, full day: 9:00 a.m. - 3:30 p.m. M-F",
                "url": "http://www.abcinfo.org",
                "icon": "icons/school.png",
                "info": "Head Start is a free early education program serving low income pregnant women and children from birth to 5 years old. Children receive health, hearing, vision, developmental and behavioral screening upon enrollment.<br><span style=\"font-weight: bold;\">Eligibility:<\/span> Must meet income requirements (below federal poverty level). <br><a href=\"http://www.abcinfo.org/head-start/recruitment-app\">Application<\/a>"
              }
            },
            {
              "type": "Feature",
              "geometry": {
                "type": "Point",
                "coordinates": [
                  -77.5740887,
                  43.1758787
                ]
              },
             "properties": {
                "name": "Head Start",
                "phoneFormatted": "(585) 482-8914",
                "phone": "5854828914",
                "address": "1772 Clifford Avenue",
                "city": "Rochester",
                "country": "United States",
                "postalCode": "14609",
                "state": "NY",
                "hours": "Head Start, half day: M-Th 8:30 a.m. - 11:30 a.m. <br> Head start, full day: M-F 9:00 a.m. - 3:30 p.m.",
                "url": "http://www.abcinfo.org",
                "icon": "icons/school.png",
                "info": "Head Start is a free early education program serving low income pregnant women and children from birth to 5 years old. Children receive health, hearing, vision, developmental and behavioral screening upon enrollment.<br><span style=\"font-weight: bold;\">Eligibility:<\/span> Must meet income requirements (below federal poverty level). <br><a href=\"http://www.abcinfo.org/head-start/recruitment-app\">Application<\/a>"
              }
            },
            {
              "type": "Feature",
              "geometry": {
                "type": "Point",
                "coordinates": [
                  -77.5995342,
                  43.18660369999999
                ]
              },
             "properties": {
                "name": "Head Start",
                "phoneFormatted": "(585) 467-1472",
                "phone": "5854671472",
                "address": "1150 Hudson Avenue",
                "city": "Rochester",
                "country": "United States",
                "postalCode": "14621",
                "state": "NY",
                "hours": "Head Start, half day: M-Th 8:30 a.m. - 11:30 a.m. <br> Head start, full day: M-F 9:00 a.m. - 3:30 p.m.",
                "url": "http://www.abcinfo.org",
                "icon": "icons/school.png",
                "info": "Head Start is a free early education program serving low income pregnant women and children from birth to 5 years old. Children receive health, hearing, vision, developmental and behavioral screening upon enrollment.<br><span style=\"font-weight: bold;\">Eligibility:<\/span> Must meet income requirements (below federal poverty level). <br><a href=\"http://www.abcinfo.org/head-start/recruitment-app\">Application<\/a>"
              }
            },
            {
              "type": "Feature",
              "geometry": {
                "type": "Point",
                "coordinates": [
                  -77.628173,
                  43.14225400000001
                ]
              },
             "properties": {
                "name": "Head Start",
                "phoneFormatted": "(585) 436-0362",
                "phone": "5854360362",
                "address": "640 Jefferson Avenue",
                "city": "Rochester",
                "country": "United States",
                "postalCode": "14611",
                "state": "NY",
                "hours": "Head Start, half day: M-Th 8:30 a.m. - 11:30 a.m. <br> Head start, full day: M-F 9:00 a.m. - 3:30 p.m.",
                "url": "www.abcinfo.org",
                "icon": "icons/school.png",
                "info": "Head Start is a free early education program serving low income pregnant women and children from birth to 5 years old. Children receive health, hearing, vision, developmental and behavioral screening upon enrollment.<br><span style=\"font-weight: bold;\">Eligibility:<\/span> Must meet income requirements (below federal poverty level). <br><a href=\"http://www.abcinfo.org/head-start/recruitment-app\">Application<\/a>"
              }
            },
            {
              "type": "Feature",
              "geometry": {
                "type": "Point",
                "coordinates": [
                  -77.6052386,
                  43.146501
                ]
              },
             "properties": {
                "name": "Association for the Blind and Visually Impaired",
                "phoneFormatted": "(585) 232-7074",
                "phone": "5852327074",
                "address": "500 South Clinton Avenue",
                "city": "Rochester",
                "country": "United States",
                "postalCode": "14620",
                "state": "NY",
                "hours": "Office: M-F 8:00 a.m. - 4:30 p.m. Varies according to program. Call for information.",
                "url": "http://www.abvi-goodwill.org",
                "icon": "icons/eye.png",
                "info": "The Low Vision Center: The Low Vision Center works with consumers to maximize their remaining vision using specially prescribed lenses and visual aids. <br> Daily Living Skills: Home visits and small group training help individuals learn new ways to accomplish house-hold and other tasks using adaptive equipment and methods. <br> Employment Services: ABVI-Goodwill provides specialized job training and employment opportunities to help people who are blind or visually impaired enter or return to the workforce. <br> Project Eye Care: A program designed to prevent vision problems and treatable eye disease for uninsured adults in our community. Free eye exams are provided by local eye doctors who volunteer their time. Eyeglasses are donated by partnering optical centers. <br> Vision Care for Kids: Free eye exams and glasses for uninsured school-age children, grades K- 1 <br> Early Vision Screening: Free vision screenings are provided at local child care centers and preschools for children  6 months to five years. <br><span style=\"font-weight: bold;\">Eligibility:<\/span> serves blind people and the uninsured population."
              }
            },
            {
              "type": "Feature",
              "geometry": {
                "type": "Point",
                "coordinates": [
                  -77.54984100000001,
                  43.148696
                ]
              },
             "properties": {
                "name": "Al-Anon/Ala-Teen",
                "phoneFormatted": "(585) 288-0540",
                "phone": "5852880540",
                "address": "805 Blossom Road",
                "city": "Rochester",
                "country": "United States",
                "postalCode": "14610",
                "state": "NY",
                "hours": "Meetings every day at different locations throughout the US. See the website or call for a list of meetings.", 
                "url": "http://www.al-anon.alateen.org",
                "icon": "icons/support.png",
                "info": "Al-Anon and Ala-teen are support groups for those who are friends or relatives of people with alcoholism. Al-Anon members support each other through listening to each other and sharing their experiences, strength, and hope with one another. There are meetings every day of the week at different locations throughout the United States. Please see the website or call for a list of meetings. <br><span style=\"font-weight: bold;\">Eligibility:<\/span> All friends and family of those affected by addiction are welcome."
              }
            },
            {
              "type": "Feature",
              "geometry": {
                "type": "Point",
                "coordinates": [
                  -77.62117,
                  43.09537599999999
                ]
              },
             "properties": {
                "name": "Arc of Monroe County",
                "phoneFormatted": "(585) 286-9607",
                "phone": "5852869607",
                "address": "2060 Brighton-Henrietta Townline Road",
                "city": "Rochester",
                "country": "United States",
                "postalCode": "14623",
                "state": "NY",
                "hours": "Office: M-F 8:00 a.m. - 4:30 p.m. Health clinic: M-F 8:00 a.m. - 4:30 p.m. Evening and Saturday appointments can be arranged.",
                "url": "http://www.arcmonroe.org",
                "icon": "icons/disability.png",
                "info": "The Arc of Monroe County provides a variety of programs and services for people with intellectual and/or developmental disabilities and their families in the Rochester community, including residential care, employment training, healthcare, day habilitation, and support services. <br><span style=\"font-weight: bold;\">Eligibility:<\/span> Individuals must meet eligibility requirements as outlined by The New York State Office for People with Developmental Disabilities (OPWDD) in order to enroll in the programs and services offered at The Arc of Monroe County. To see if your family is eligible, contact our Community Outreach Coordinator at 585-286-9607."
              }
            },
            {
              "type": "Feature",
              "geometry": {
                "type": "Point",
                "coordinates": [
                  -77.537575,
                  43.1037968
                ]
              },
             "properties": {
                "name": "Arthritis Foundation",
                "phoneFormatted": "(585) 264-1480",
                "phone": "5852641480",
                "address": "3300 Monroe Avenue, Suite 319",
                "city": "Rochester",
                "country": "United States",
                "postalCode": "14618",
                "state": "NY",
                "hours": "M-F 9:00 a.m. - 5:00 p.m.",
                "url": "http://www.arthritis.org/new-york/",
                "icon": "icons/support.png",
                "info": "The Arthritis Foundation offers information and tools to help people live a better life with arthritis. The Arthritis Foundation offers services such as Aquatic, Tai Chi and other exercise programs as well as a self-help group education program. <br> <span style=\"font-weight: bold;\">Eligibility:<\/span> Open to anyone affected by arthritis."
              }
            },
            {
              "type": "Feature",
              "geometry": {
                "type": "Point",
                "coordinates": [
                  -77.608498,
                  43.18039489999999
                ]
              },
             "properties": {
                "name": "Baby Love",
                "phoneFormatted": "(585) 339-3209",
                "phone": "5853393209",
                "address": "555 Avenue D",
                "city": "Rochester",
                "country": "United States",
                "postalCode": "14621",
                "state": "NY",
                "hours": "M-F 9:00 a.m. - 5:00 p.m. Call for information.",
                "url": "https://www.urmc.rochester.edu/childrens-hospital/social-work/baby-love.aspx/",
                "icon": "icons/baby.png",
                "info": "Baby Love is a prenatal outreach program administered by URMC Strong Hospial’s Social Work division that works with pregnant women and their families in obtaining health care services and promoting healthy behavioral choices. Services include social work assessment, referral for and coordination with prenatal, pediatric, and community service providers, assistance with prescriptions for the mother, baby, or family, supportive home visits, prenatal and parent intervention, transportation help, and crisis intervention. <br> <span style=\"font-weight: bold;\">Eligibility:<\/span> To be eligible for Baby Love services you must be pregnant, less than 30 weeks gestation, and have insurance through one of the following: Blue Choice Option, Family Health Plus, Child Health Plus or Medicaid Managed Care. You may also qualify if you reside in the City of Rochester and are interested in a program combining Baby Love and Parents as Teachers."
              }
            },
            {
              "type": "Feature",
              "geometry": {
                "type": "Point",
                "coordinates": [
                  -77.58387449999998,
                  43.1595692
                ]
              },
             "properties": {
                "name": "Mental Health Association of Rochester/Monroe County",
                "phoneFormatted": "(585) 325-3145",
                "phone": "5853253145",
                "address": "320 Goodman Street North, Suite 202",
                "city": "Rochester",
                "country": "United States",
                "postalCode": "14607",
                "state": "NY",
                "hours": "Office: M-F 9:00 a.m. - 5:00 p.m. Access to on-call staff: M-F 8:00 a.m. - 10:00  p.m. Weekends and holidays: 10:00 a.m. - 10:00 p.m..  Many programs offer activities in the evenings and on Saturdays.",
                "url": "https://www.mharochester.org/",
                "icon": "icons/counsel.png",
                "info": "Mental Health Association offers information and referrals to existing mental health and community services, self-help group services, educational programs and advocacy on issues relating to mental health and illness. Some services include parenting classes, coping strategies for families to handle stress in the home, and teen support groups. <br> <span style=\"font-weight: bold;\">Eligibility:<\/span> Open to all."
              }
            },
            {
              "type": "Feature",
              "geometry": {
                "type": "Point",
                "coordinates": [
                  -77.60556759999997,
                  43.1451224
                ]
              },
             "properties": {
                "name": "Mental Health Association Self-Help Drop In & Warm Line Service",
                "phoneFormatted": "(585) 454-3530",
                "phone": "5854543530",
                "address": "539 South Avenue",
                "city": "Rochester",
                "country": "United States",
                "postalCode": "14620",
                "state": "NY",
                "hours": "Weekdays and weekends 5:00 p.m. - 9:00 p.m. Warm line available 5:00 p.m. - 9:30 p.m. all days.",
                "url": "https://www.mharochester.org/Default.aspx?RD=2879/",
                "icon": "icons/counsel.png",
                "info": "Mental Health Association Self-Help Drop in and Warm Line provides support to individuals who need someone to talk to outside of their regular mental health care. Support is provided by individuals who have overcome mental health concerns and now offer support to others as they find their own path to mental wellness. <br> <span style=\"font-weight: bold;\">Eligibility:<\/span> Open to all."
              }
            }, 
            {
              "type": "Feature",
              "geometry": {
                "type": "Point",
                "coordinates": [
                  -77.63504460000001,
                  43.1403696
                ]
              },
             "properties": {
                "name": "The Boys and Girls Club of Rochester",
                "phoneFormatted": "(585) 328-3077",
                "phone": "5853283077",
                "address": "500 Genesee Street",
                "city": "Rochester",
                "country": "United States",
                "postalCode": "14611",
                "state": "NY",
                "url": "http://www.bgclubrochester.org",
                "icon": "icons/youth.png",
                "info": "The Boys and Girls Club of Rochester is a recreation center that provides programs and services to community youth. Examples of programs and services include: soccer, bicycling, basketball, arts and crafts, cooking and nutrition classes, tutoring, family support services, and Medicaid service coordination. <br> <span style=\"font-weight: bold;\">Eligibility:<\/span> The recreation center is associated to all youth ages 6- 18 in the Rochester area including those who are developmentally disabled.  <br> <a href=\"http://www.bgcrochester.org/LinkClick.aspx?fileticket=ecAfqFfE67o%3d&tabid=74\">Application<\/a>"
              }
            },
            {
              "type": "Feature",
              "geometry": {
                "type": "Point",
                "coordinates": [
                  -77.61745510000003,
                  43.1467452
                ]
              },
             "properties": {
                "name": "Building Healthy Children",
                "phoneFormatted": "(585) 275-2991",
                "phone": "5852752991",
                "address": "187 Edinburgh Street",
                "city": "Rochester",
                "country": "United States",
                "postalCode": "14608",
                "state": "NY",
                "hours": "M-F 8:00 a.m. - 6:00 p.m.",
                "url": "http://www.psych.rochester.edu/MHFC/community-services/building-healthy-children/",
                "icon": "icons/family.png",
                "info": "Building Healthy Children is a collaboration between Mt. Hope Family Center, Strong Pediatrics and Strong Social Work to serve teen mothers and their children to improve family functioning and parent-child relationships. Each family will have an outreach worker who will provide supportive home visits, assistance with transportation and concrete needs and referral to other services. They will also have a social worker who will follow them in Pediatric clinic. Other services include employment assistance, interpersonal psychotherapy, and child-parent psychotherapy. <br><span style=\"font-weight: bold;\">Eligibility:<\/span> Must receive pediatric care at Strong Pediatrics, Highland Family Medicine, Anthony Jordan Health Center, Rochester General Pediatrics Associates or Culver Medical Group. No more than 2 children in the family with both children being under age 3. Mother must have been under age 21 when her first child was born. Families must be TANF eligible. No current CPS involvement or prior CPS indicated reports, and no involvement with Preventative services." 
              }
            },
            {
              "type": "Feature",
              "geometry": {
                "type": "Point",
                "coordinates": [
                  -77.63938280000002,
                  43.1657243
                ]
              },
             "properties": {
                "name": "Cameron Community Ministries ",
                "phoneFormatted": "(585) 254-2697",
                "phone": "5852542697",
                "address": "48 Cameron Street",
                "city": "Rochester",
                "country": "United States",
                "postalCode": "14606",
                "state": "NY",
                "hours": "Lunch M-Sa 12:00 p.m. - 1:30 pm; After School Program: M-F 3:30 p.m. - 6:30 pm; Sunday Celebration Dinner: every Sunday at 4:30 p.m.; Clothing House: T-Th 9:30 a.m. - 12:30 p.m.; Food Pantry by appointent T-F 9:00 a.m. - 11:00 a.m.",
                "url": "http://www.cameronministries.org",
                "icon": "icons/community.png",
                "info": "Cameron Community Ministries is an Urban Outreach Community Center in the Lyell-Otis Neighborhood of Rochester, NY. Cameron Community Ministries offers many programs including Youth After-School and Summer programs, a free hot meal program that serves lunch daily, an emergency food pantry and a clothing house that serves community members in need of clothing and housewares.<br><span style=\"font-weight: bold;\">Eligibility:<\/span> Open to any individuals living in Rochester, NY." 
              }
            },
            {
              "type": "Feature",
              "geometry": {
                "type": "Point",
                "coordinates": [
                  -77.63387,
                  43.159723
                ]
              },
             "properties": {
                "name": "Celebration of Life Community, Inc.",
                "phoneFormatted": "(585) 262-6420",
                "phone": "5852626420",
                "address": "506 Jay Street, Rochester, NY",
                "city": "Rochester",
                "country": "United States",
                "postalCode": "14606",
                "state": "NY",
                "url": "http://c1d.3ca.myftpupload.com/",
                "icon": "icons/youth.png",
                "info": "Celebration of Life Community, Inc. is a grassroots not-for-profit organization dedicated to improving graduation rates in the City of Rochester. Celebration of Life advocates for the betterment of individuals, children and families through workshops such as Help Me Read, a one on one tutoring program designed to help elementary school students. <br><span style=\"font-weight: bold;\">Eligibility:<\/span> Help Me Read serves RCSD students from kindergarten through grade 6." 
              }
            },
            {
              "type": "Feature",
              "geometry": {
                "type": "Point",
                "coordinates": [
                  -77.63210200000003,
                  43.159026
                ]
              },
             "properties": {
                "name": "The Charles Settlement House Service Center",
                "phoneFormatted": "(585) 328-5453",
                "phone": "5853285453",
                "address": "445 Jay Street",
                "city": "Rochester",
                "country": "United States",
                "postalCode": "14608",
                "state": "NY",
                "hours": "M-F 8:00 a.m. - 5:00 p.m.",
                "url": "http://www.charlessettlementhouse.org/index.php?option=com_content&view=section&id=6&Itemid=65",
                "icon": "icons/community.png",
                "info": "Charles Settlement House is the a comprehensive human service provider centered in Northwest Rochester which offers neighborhood-based programs for approximately 3000 children, teens, families and seniors each year. The Jay Street office houses the Family Services Department. Case Workers assist adults with employment, housing, agency forms, advocacy, counseling, budgeting & financial literacy, home repairs and lead remediation, and service coordination. Bilingual (English/Spanish) staff provides translation services. Caseworkers help families resolve crises and work toward increased stability and improved quality of life. There is also a food pantry and clothing closet. <br><span style=\"font-weight: bold;\">Eligibility:<\/span> Must live in Northwest Rochester." 
              }
            },
            {
              "type": "Feature",
              "geometry": {
                "type": "Point",
                "coordinates": [
                  -77.632339,
                  43.166032
                ]
              },
             "properties": {
                "name": "The Charles Settlement House Community Center",
                "phoneFormatted": "(585) 277-0810",
                "phone": "5852770810",
                "address": "71 Parkway",
                "city": "Rochester",
                "country": "United States",
                "postalCode": "14608",
                "state": "NY",
                "hours": "M-F 8:00 a.m. - 5:00 p.m.",
                "url": "http://www.charlessettlementhouse.org/index.php?option=com_content&view=article&id=82&Itemid=87",
                "icon": "icons/community.png",
                "info": "Charles Settlement House is the a comprehensive human service provider centered in Northwest Rochester which offers neighborhood-based programs for approximately 3000 children, teens, families and seniors each year. The Parkway office houses the Northwest Rochester Senior Center, the Notre Dame Learning Center, Edgerton Family Day Care, and Bubbles Universal Pre-Kindergarten. <br><span style=\"font-weight: bold;\">Eligibility:<\/span> Must live in Northwest Rochester." 
              }
            },
            {
              "type": "Feature",
              "geometry": {
                "type": "Point",
                "coordinates": [
                  -77.63175319999999,
                  43.1591746
                ]
              },
             "properties": {
                "name": "The Charles Settlement House Activity Center",
                "phoneFormatted": "(585) 328-5453",
                "phone": "5853285453",
                "address": "431 Jay Street",
                "city": "Rochester",
                "country": "United States",
                "postalCode": "14608",
                "state": "NY",
                "hours": "M-F 8:00 a.m. - 5:00 p.m.",
                "url": "http://www.charlessettlementhouse.org/index.php?option=com_content&view=article&id=82&Itemid=87",
                "icon": "icons/community.png",
                "info": "Charles Settlement House is the a comprehensive human service provider centered in Northwest Rochester which offers neighborhood-based programs for approximately 3000 children, teens, families and seniors each year. The Activity Center is the site for the group work programs: preschool development, after school and evening programs for school age youth and teens, parents, group activities, etc. <br><span style=\"font-weight: bold;\">Eligibility:<\/span> Must live in Northwest Rochester." 
              }
            },
            {
              "type": "Feature",
              "geometry": {
                "type": "Point",
                "coordinates": [
                  -77.61214000000001,
                  43.1535002
                ]
              },
             "properties": {
                "name": "The Children’s Center",
                "phoneFormatted": "(585) 371-3544",
                "phone": "5853713544",
                "address": "Hall of Justice, 99 Exchange Blvd",
                "city": "Rochester",
                "country": "United States",
                "postalCode": "14614",
                "state": "NY",
                "hours": "M-F 9:00 a.m. - 12:30 p.m.; 1:30 p.m. - 5:00 p.m.",
                "url": "http://www.nycourts.gov/courts/7jd/courts/family/county/monroe/ww.courts.state.ny.us",
                "icon": "icons/daycare.png",
                "info": "The Children’s Center is a drop-off childcare center for children whose families are in court. The Children’s Center also provides a setting in which families can be linked to needed services. Children with indication of developmental delays are referred to community agencies for follow-up such as Early Intervention. WIC, Temporary Assistance and Medicaid applications are completed and submitted. Enrollment site for Head Start. <br><span style=\"font-weight: bold;\">Eligibility:<\/span> Serves children whose families are in court." 
              }
            },
            {
              "type": "Feature",
              "geometry": {
                "type": "Point",
                "coordinates": [
                  -77.5750253,
                  43.1654119
                ]
              },
             "properties": {
                "name": "The Community Place Senior Center",
                "phoneFormatted": "(585) 288-0021",
                "phone": "5852880021",
                "address": "145 Parsells Avenue",
                "city": "Rochester",
                "country": "United States",
                "postalCode": "14609",
                "state": "NY",
                "hours": "M-F 8:30 a.m. - 5:00 p.m.",
                "url": "http://www.communityplace.org/programs/aging/",
                "icon": "icons/senior.png",
                "info": "At the senior center, older adults participate in daily activities that support socialization and independent living. Activities include: exercise programs; computer classes; music, arts and crafts; nutrition education, access to exercise equipment, and day trips. A meal is served daily and transportation assistance is provided as needed. Care management is also available. <br> Foster Grandparent program: The Foster Grandparent Program offers older adults the opportunity to assist children enrolled in educational programs at 36 area schools and childcare centers to succeed. <br>Senior companion Program: The Senior Companion Program offers older adults the opportunity to assist frail elders at area adult day programs, senior centers and in their homes.<br><span style=\"font-weight: bold;\">Eligibility:<\/span> Must be a resident of Northeast Rochester. Senior center: ages 60 and up. Care management: ages 60 and up. Foster grandparents and senior companions: ages 55 and up and must meet income eligibility requirements.<br><a href=\"http://www.communityplace.org/wp-content/uploads/2013/04/Foster-Grandparent-Sr-Comp-AppEnglish1.pdf \">Foster Grandparent and Senior Companion Application<\/a><br><a href=\"http://www.communityplace.org/wp-content/uploads/2013/04/Sr-Companion-referral-form1.pdf \">Senior Companion Program Frail Elder Referral<\/a>"
              }
            },
            {
              "type": "Feature",
              "geometry": {
                "type": "Point",
                "coordinates": [
                  -77.5830977,
                  43.0923477
                ]
              },
             "properties": {
                "name": "Compassion Net",
                "phoneFormatted": "1-800-308-3914",
                "phone": "18003083914",
                "address": "3111 Winton Road South",
                "city": "Rochester",
                "country": "United States",
                "postalCode": "14623",
                "state": "NY",
                "url": "https://lifetimecare.org/support-wellness/compassionnet",
                "icon": "icons/medical.png",
                "info": "Compassion Net is a program for families with children facing a potentially life-threatening condition. When a child is diagnosed with a potentially life-threatening illness, the Compassion Net team will work closely with hospital staff and primary care providers to help support the child, siblings and family through diagnosis, treatment, stabilization, cure, or at times, end of life and bereavement. Each family is assigned a Case Manager and has access to the Pediatric Palliative Care Medical Team and Child Life Specialists. <br><span style=\"font-weight: bold;\">Eligibility:<\/span> To be eligible, a child must a) be diagnosed with a condition that places the child at significant risk for not reaching adulthood (age 21), OR b) have acute exacerbation of a chronic illness that places the child at immediate risk. Additionally, the child must be 21 years of age or younger and be currently enrolled in a health insurance program managed by Excellus BlueCross BlueShield."
              }
            }, 
            {
              "type": "Feature",
              "geometry": {
                "type": "Point",
                "coordinates": [
                  -77.58277450000003,
                  43.08357729999999
                ]
              },
             "properties": {
                "name": "CP Rochester Augustin Children's Center",
                "phoneFormatted": "(585) 334-6000 x1212",
                "phone": "5853346001212",
                "address": "3399 Winton Road South",
                "city": "Rochester",
                "country": "United States",
                "postalCode": "14623",
                "state": "NY",
                "url": "http://cprochester.org/augustin.asp",
                "icon": "icons/school.png",
                "info": "CP Rochester Augustin Children’s Center is an intervention facility for children with disabilities from birth to age three, as well as a preschool for children with and without disabilities from age three to five. The Center boasts a number of features not offered by other providers such as a warm-water indoor pool, large gymnasium with stage, outdoor exploratory classroom, large playground with ‘safe surface,’ and fully-integrated classrooms and programs. <br><span style=\"font-weight: bold;\">Eligibility:<\/span><br> Early intervention: To determine your child’s eligibility, contact the Monroe County Early Intervention Program at 585-753-5437. Eligibility will be determined by a NYS-approved evaluator contracted by Monroe County. If your child is eligible, services will be implemented at no cost to you. <br> Preschool: available to all children ages 4-5"
              }
            },
            {
              "type": "Feature",
              "geometry": {
                "type": "Point",
                "coordinates": [
                  -77.70317699999998,
                  43.0794738
                ]
              },
             "properties": {
                "name": "Crestwood Children’s Center",
                "phoneFormatted": "(585) 256-7500",
                "phone": "5852567500",
                "address": "2075 Scottsville Road",
                "city": "Rochester",
                "country": "United States",
                "postalCode": "14623",
                "state": "NY",
                "hours": "M-F 8:00 a.m. - 5:00 p.m. Other hours by appointment.",
                "url": "https://www.hillside.com/services/",
                "icon": "icons/counsel.png",
                "info": "Crestwood offers an array of behavioral and mental health services to children ages birth to 26 years and their families. Crestwood serves children and youth and their families in need of residential, outpatient, or day services for significant mental health issues. Crestwood also has Family Resource Centers that offer early childhood education and parent training programs in Rochester neighborhoods. <br><span style=\"font-weight: bold;\">Eligibility:<\/span><br> Day treatment program: ages 3-12 <br> Residential program: ages 5-18; IQ 50 or above."
              }
            },
            {
              "type": "Feature",
              "geometry": {
                "type": "Point",
                "coordinates": [
                  -77.64471370000001,
                  43.1260845
                ]
              },
             "properties": {
                "name": "Crisis Nursery of Greater Rochester",
                "phoneFormatted": "(585) 271-7670",
                "phone": "5852717670",
                "address": "201 Genesee Park Blvd",
                "city": "Rochester",
                "country": "United States",
                "postalCode": "14619",
                "state": "NY",
                "hours": "Open all year including weekends and holidays, 24 hours a day.",
                "url": "http://centerforyouth.net/programs/crisis-nursery",
                "icon": "icons/daycare.png",
                "info": "The Crisis Nursery of Greater Rochester provides a safe, nurturing environment for children whose families are in crisis. The Crisis Nursery’s primary goal is to provide temporary care for children at risk of abuse and neglect, while offering support services to families and caregivers. Children can live at the nursery short term and be, cared for by a trained staff and child care workers. <br><span style=\"font-weight: bold;\">Eligibility:<\/span> The Crisis Nursery serves children ages newborn to 14; the program is certified to accept children up to age 17 to keep siblings together."
              }
            },
            {
              "type": "Feature",
              "geometry": {
                "type": "Point",
                "coordinates": [
                  -77.58843360000003,
                  43.123848
                ]
              },
             "properties": {
                "name": "Daystar for Medically Fragile Children",
                "phoneFormatted": "(585) 385-6287",
                "phone": "5853856287",
                "address": "700 Lac De Ville Blvd.",
                "city": "Brighton",
                "country": "United States",
                "postalCode": "14620",
                "state": "NY",
                "url": "http://www.daystarkids.org/",
                "icon": "icons/daycare.png",
                "info": "Daystar provides a year-round full-day program for children with critical healthcare needs. Daystar's core services model incorporates expert pediatric nursing and respite care, therapeutic and educational enrichment programs, and family training, support, and advocacy services, inlcuding care coordination and transitional services for children leaving early intervention programs and entering school-based systems of care.<br> <span style=\"font-weight: bold;\">Eligibility:<\/span> Children must be between 6 months and 5 years old and meet Daystar’s medical eligibility criteria. <br> <a href=\"http://www.daystarkids.org/#!admissions/cxpp \">Application<\/a>"
              }
            },
            {
              "type": "Feature",
              "geometry": {
                "type": "Point",
                "coordinates": [
                  -77.6185615,
                  43.1684402
                ]
              },
             "properties": {
                "name": "Early Intervention",
                "phoneFormatted": "(585) 753-5437",
                "phone": "5857535437",
                "address": "691 Saint Paul Street, 4th Floor",
                "city": "Rochester",
                "country": "United States",
                "postalCode": "14605",
                "state": "NY",
                "url": "http://www2.monroecounty.gov/hd-ei-home",
                "icon": "icons/baby.png",
                "info": "Early Intervention is a national program that provides many different types of early intervention services to families of eligible infants and toddlers with disabilities and suspected developmental delays. <br><span style=\"font-weight: bold;\">Eligibility:<\/span> All children under 3 who have a disability or developmental delay. Anyone may refer, as long as the parent does not object. <br> <a href=\"http://www2.monroecounty.gov/files/health/EI/Referral%20Form.pdf \">Application<\/a>"
              }
            },
            {
              "type": "Feature",
              "geometry": {
                "type": "Point",
                "coordinates": [
                  -77.61454850000001,
                  43.1232787
                ]
              },
             "properties": {
                "name": "Epilepsy Pralid, Inc.",
                "phoneFormatted": "(585) 442-4430",
                "phone": "5854424430",
                "address": "1650 South Avenue, Suite 300",
                "city": "Rochester",
                "country": "United States",
                "postalCode": "14620",
                "state": "NY",
                "hours": "M-F 8:00 a.m. - 4:30 p.m.",
                "url": "http://epiny.org/",
                "icon": "icons/support.png",
                "info": "Epilepsy-Pralid, Inc. is a non-profit human services agency that helps individuals and families affected by epilepsy, traumatic brain injury, and related disabilities to manage and cope with their disorders by providing epilepsy education, information and referral, service coordination, vocational and residential services. <br><span style=\"font-weight: bold;\">Eligibility:<\/span> Individuals and family affected by epilepsy, traumatic brain injury, and related conditions. Please call for specific eligibility criteria for different programs. <br><a href=\"http://epiny.org/downloads/EPI-Intake-Application.pdf \">Intake Application<\/a>"
              }
            }, 
            {
              "type": "Feature",
              "geometry": {
                "type": "Point",
                "coordinates": [
                  -77.6286417,
                  43.0959489
                ]
              },
             "properties": {
                "name": "Epilepsy Pralid, Inc.",
                "phoneFormatted": "(585) 442-6420",
                "phone": "5854426420",
                "address": "2 Townline Circle",
                "city": "Rochester",
                "country": "United States",
                "postalCode": "14623",
                "state": "NY",
                "hours": "M-F 8:00 a.m. - 4:30 p.m.",
                "url": "http://epiny.org/",
                "icon": "icons/support.png",
                "info": "Epilepsy-Pralid, Inc. is a non-profit human services agency that helps individuals and families affected by epilepsy, traumatic brain injury, and related disabilities to manage and cope with their disorders by providing epilepsy education, information and referral, service coordination, vocational and residential services. <br><span style=\"font-weight: bold;\">Eligibility:<\/span> Individuals and family affected by epilepsy, traumatic brain injury, and related conditions. Please call for specific eligibility criteria for different programs.<br><a href=\"http://epiny.org/downloads/EPI-Intake-Application.pdf \">Intake Application<\/a>"
              }
            }, 
            {
              "type": "Feature",
              "geometry": {
                "type": "Point",
                "coordinates": [
                  -77.608498,
                  43.18039489999999
                ]
              },
             "properties": {
                "name": "Peter Castle Family Resource Center",
                "phoneFormatted": "(585) 339-3200",
                "phone": "5853393200",
                "address": "555 Avenue D",
                "city": "Rochester",
                "country": "United States",
                "postalCode": "14621",
                "state": "NY",
                "hours": "M-F 9:00 a.m. - 3:00 p.m.",
                "url": "http://www.rcsdk12.org/Domain/7158",
                "icon": "icons/family.png",
                "info": "The Peter Castle Family Resource Center works in partnership with families to foster the development of young children and to inspire the growth of parents as their child’s most valuable teacher. Services include parenting education groups and Early Childhood Education. The Peter Castle Family Resource Center is a Universal pre-K site." 
                }
            }, 
            {
              "type": "Feature",
              "geometry": {
                "type": "Point",
                "coordinates": [
                  -77.63717500000001,
                  43.1484359
                ]
              },
             "properties": {
                "name": "Southwest Family Resource Center",
                "phoneFormatted": "(585) 436-0370",
                "phone": "5854360370",
                "address": "89 Genesee Street, Bishop Kearney Bldg., 2nd Floor",
                "city": "Rochester",
                "country": "United States",
                "postalCode": "14611",
                "state": "NY",
                "hours": "M-F 9:00 a.m. - 3:00 p.m.",
                "url": "http://www.rcsdk12.org/Page/25371",
                "icon": "icons/family.png",
                "info": "The Southwest Family Resource Center works to foster the development of young children and inspire the growth of parents as their child's most valuable teacher. Services include parenting education groups and neighborhood-based family support and home visiting programs. The Southwest Family Resource Center is a universal pre-K site. <br><span style=\"font-weight: bold;\">Eligibility:<\/span> Services are available to all families of young children living in Rochester." 
              }
            },
            {
              "type": "Feature",
              "geometry": {
                "type": "Point",
                "coordinates": [
                  -77.59638030000002,
                  43.1520625
                ]
              },
             "properties": {
                "name": "Gilda's Club Rochester",
                "phoneFormatted": "(585) 423-9700",
                "phone": "5854239700",
                "address": "255 Alexander Street",
                "city": "Rochester",
                "country": "United States",
                "postalCode": "14607",
                "state": "NY",
                "hours": "M-F 9:00 a.m. - 3:00 p.m.",
                "url": "http://www.gildasclubrochester.org",
                "icon": "icons/family.png",
                "info": "Gilda’s Club Rochester is a 'clubhouse' where men, women and children can share their hopes and fears, their wisdom and information, and come together to learn how to live with cancer whatever the outcome. <br><span style=\"font-weight: bold;\">Eligibility:<\/span> Anyone whose life is affected by cancer—whether it is themselves, or a family member or friend with cancer—can join Gilda’s Club and participate in the many support groups and other activities available there. <br><a href=\"https://www.gildasclubrochester.org/contact-us \">Join<\/a>" 
              }
            },
            {
              "type": "Feature",
              "geometry": {
                "type": "Point",
                "coordinates": [
                  -77.65077020000001,
                  43.1584691
                ]
              },
             "properties": {
                "name": "Coordinated Care Services, Inc. Insurance Navigator",
                "phoneFormatted": "(585) 613-7662",
                "phone": "5854239700",
                "address": "1099 Jay Street, Building J",
                "city": "Rochester",
                "country": "United States",
                "postalCode": "14611",
                "state": "NY",
                "url": "http://www.ccsi.org/navigator-program.aspx",
                "icon": "icons/family.png",
                "info": "The In-Person Assistor / Navigator program provides one-on-one assistance for individuals and small businesses interested in shopping for and enrolling in health insurance through The New York State of Health. Navigators are available to meet with individuals, families and small businesses at various locations throughout the community to provide education about the different types of health insurance plans offered through the New York State of Health marketplace and to assist with enrollment into public insurance programs and qualified health plans. <br><span style=\"font-weight: bold;\">Eligibility:<\/span> Anyone in Monroe and Livingston County who needs assistance applying for health insurance. <br><a href=\"https://www.surveygizmo.com/s3/1890894/Navigator-Appointment-Request \">Appointment Request<\/a>" 
              }
            },  
            {
              "type": "Feature",
              "geometry": {
                "type": "Point",
                "coordinates": [
                  -77.564483,
                  43.1619529
                ]
              },
             "properties": {
                "name": "Jennifer House",
                "phoneFormatted": "(585) 288-1074",
                "phone": "5852881074",
                "address": "934 Culver Road",
                "city": "Rochester",
                "country": "United States",
                "postalCode": "14609",
                "state": "NY",
                "url": "http://spirituschristiprisonoutreach.org/index.php/programs/jennifer",
                "icon": "icons/family.png",
                "info": "The Jennifer House is a residential facility created under the Spiritus Christi Prison Outreach Women's Program. The Jennifer House provides shelter and a structured residential program for women upon their release from prison, jail, inpatient and the streets. <br><span style=\"font-weight: bold;\">Eligibility:<\/span>  Jennifer House is available specifically for women who are released from jail and their children. Jennifer House also works closely with local chemical dependency inpatient facilities to provide housing to women in need and link them to additional resources in the community as needed. <br><a href=\"https://www.surveygizmo.com/s3/1890894/Navigator-Appointment-Request \">Appointment Request<\/a>" 
              }
            },  
            {
              "type": "Feature",
              "geometry": {
                "type": "Point",
                "coordinates": [
                  -77.613763,
                  43.24975699999999
                ]
              },
             "properties": {
                "name": "Lakeside Child and Family Center",
                "phoneFormatted": "(585) 663-3670",
                "phone": "5856633670",
                "address": "75 Stutson Street",
                "city": "Rochester",
                "country": "United States",
                "postalCode": "14612",
                "state": "NY",
                "hours": "Daycare: M-F 6:30 a.m. - 6:00 p.m.; Pre-k: 9:00 a.m. - 3:00 p.m.",
                "url": "http://www.rcsdk12.org/Domain/7156",
                "icon": "icons/family.png",
                "info": "Lakeside Child and Family Center is a day care center serving children 6 weeks old to 10 years old.  Lakeside also has a Rochester city School District Universal Pre-K program. Also offers Monthly parent-child interaction events and family socials with a focus on early childhood development and the importance of play.<br><span style=\"font-weight: bold;\">Eligibility:<\/span>  Daycare open to children ages 6 weeks to 10 years." 
              }
            },
            {
              "type": "Feature",
              "geometry": {
                "type": "Point",
                "coordinates": [
                  -77.59262580000001,
                  43.1206238
                ]
              },
             "properties": {
                "name": "Lifespan of Greater Rochester",
                "phoneFormatted": "(585) 244-8400",
                "phone": "5852448400",
                "address": "1900 Clinton Ave South",
                "city": "Rochester",
                "country": "United States",
                "postalCode": "14618",
                "state": "NY",
                "url": "http://www.lifespan-roch.org/",
                "icon": "icons/family.png",
                "info": "Lifespan helps older adults and caregivers take on the challenges and opportunities of longer life.  Lifespan is a trusted source of unbiased information, guidance and more than 30 services and advocacy for older adults and caregivers." 
              }
            }, 
            {
              "type": "Feature",
              "geometry": {
                "type": "Point",
                "coordinates": [
                  -77.60548840000001,
                  43.1579102
                ]
              },
             "properties": {
                "name": "The Wolk Older Adult Center",
                "phoneFormatted": "(585) 232-3280",
                "phone": "5852323280",
                "address": "25 Franklin Street",
                "city": "Rochester",
                "country": "United States",
                "postalCode": "14604",
                "state": "NY",
                "hours": "M-F 8:30 a.m. - 4:00 p.m.; Weekends and holidays: 9:00 a.m. - 1:00 p.m.",
                "url": "https://static1.squarespace.com/static/531f242de4b0467fe7ea5084/t/5436a74ae4b020db7f08bb18/1412867914019/WolkCenterBrochure.pdf",
                "icon": "icons/family.png",
                "info": "The Wolk Older Adult Center is Lifespan's downtown location. Lifespan provides information, guidance and services that help older adults take on both the challenges and opportunities of the second half of life. Breakfast and lunch served daily.<br><span style=\"font-weight: bold;\">Eligibility:<\/span> Adults ages 60 and older." 
              }
            },
            {
              "type": "Feature",
              "geometry": {
                "type": "Point",
                "coordinates": [
                  -77.63033469999999,
                  43.1803263
                ]
              },
             "properties": {
                "name": "The Caroline 'Lily' Lobozzon Aging Resource Center",
                "phoneFormatted": "(585) 647-3600",
                "phone": "5856473400",
                "address": "25 Driving Park Avenue",
                "city": "Rochester",
                "country": "United States",
                "postalCode": "14613",
                "state": "NY",
                "hours": "M-F 8:30 a.m. - 4:00 p.m.",
                "url": "http://rochesterymca.org/lily-cafe",
                "icon": "icons/family.png",
                "info": "The Caroline 'Lily' Lobozzo Aging Resource Center promotes successful aging by providing an engaging atmosphere encompassing mind, body and spirit. By creating a space full of celebration and friends, the Lily Cafe combats isolation, promotes community, and encourages life-long learning. Lunch served daily. <br><span style=\"font-weight: bold;\">Eligibility:<\/span> YMCA members ages 60 and older. <a href=\"https://application.rochesterymca.org/Membership/SignupForm?CampID=c7abe942-0e25-40df-ba5b-71687228813f \">Maplewood YMCA Membership Application<\/a> <br> <a href=\"http://rochesterymca.org/sites/default/files/2012%20Financial%20Assistance%20Application_7.pdf \">Application for Financial Assistance<\/a>" 
              }
            },
            {
              "type": "Feature",
              "geometry": {
                "type": "Point",
                "coordinates": [
                  -77.73105629999998,
                  43.15142910000001
                ]
              },
             "properties": {
                "name": "The MVP Health Care Living Well Center",
                "phoneFormatted": "(585) 247-3501",
                "phone": "5852473501",
                "address": "920 Elmgrove Road",
                "city": "Rochester",
                "country": "United States",
                "postalCode": "14624",
                "state": "NY",
                "hours": "M-F 8:30 a.m. - 4:00 p.m.",
                "url": "http://rochesterymca.org/mvp-center",
                "icon": "icons/family.png",
                "info": "The MVP Health Care Living Well Center promotes successful aging by providing an engaging atmosphere encompassing mind, body, and spirit.  By creating a space full of celebration and friends, the MVP Health Care Living Center combats isolation, promotes community, and encourages life-long learning. <br><span style=\"font-weight: bold;\">Eligibility:<\/span> YMCA members ages 60 and older. <a href=\"https://application.rochesterymca.org/Membership/SignupForm?CampID=04977c2d-250d-477b-bf5d-acd08ed7f8d0 \">Westside YMCA Membership Application<\/a> <br> <a href=\"http://rochesterymca.org/sites/default/files/2012%20Financial%20Assistance%20Application_7.pdf \">Application for Financial Assistance<\/a>" 
              }
            },
            {
              "type": "Feature",
              "geometry": {
                "type": "Point",
                "coordinates": [
                  -77.5830977,
                  43.0923477
                ]
              },
             "properties": {
                "name": "Lifetime Care Home Health Care and Hospice",
                "phoneFormatted": "(585) 214-1000",
                "phone": "5852141000",
                "address": "3111 South Winton Road",
                "city": "Rochester",
                "country": "United States",
                "postalCode": "14623",
                "state": "NY",
                "hours": "M-F 8:30 a.m. - 5:00 p.m.",
                "url": "https://www.lifetimecare.org/",
                "icon": "icons/family.png",
                "info": "Lifetime Care delivers compassionate, personalized health care for all adults and children who are ill, injured, dying or grieving. Services include skilled nursing, home monitoring, rehabilitation services, infusion therapy, medical social work, home health aides, and hospice care. <br><span style=\"font-weight: bold;\">Eligibility:<\/span> See website or call for eligibility requirements for specific services. Lifetime Care accepts most major insurance plans including: Medicare, Medicaid, Excellus BlueCross BlueShield, MVP, United Healthcare and many other health insurance plans." 
              }
            },
            {
              "type": "Feature",
              "geometry": {
                "type": "Point",
                "coordinates": [
                  -77.61210699999998,
                  43.125648
                ]
              },
             "properties": {
                "name": "Mary Cariola Children's Center",
                "phoneFormatted": "(585) 271-0761",
                "phone": "5852710761",
                "address": "1000 Elmwood Avenue",
                "city": "Rochester",
                "country": "United States",
                "postalCode": "14620",
                "state": "NY",
                "hours": "AM Pre-school: M-F 8:45 a.m. - 11:15 a.m. <br> PM preschool: 12:30 p.m. – 3:00 p.m. <br> Full-Day Preschool: 9:00 a.m. – 2:30 p.m. <br> School age: 8:45 a.m. - 2:45 p.m.",
                "url": "http://www.marycariola.org/",
                "icon": "icons/family.png",
                "info": "Mary Cariola Children’s Center is a local, private, non-profit agency serving children and families in Monroe County, New York and surrounding areas.  The center provides the highest quality individualized services for children with developmental delays, and especially for those with complex or multiple disabilities. Programs include pre-school, school age programs, and residential programs. Tuition for students is paid either by the county or the school district. Please call for referral questions. <br><span style=\"font-weight: bold;\">Eligibility:<\/span> Children with developmental disabilities who range in age from 3 to 21 receive individually prescribed educational and therapeutic programs at the center. All children enrolled at Mary Cariola must be referred by a third party." 
              }
            },  
            {
              "type": "Feature",
              "geometry": {
                "type": "Point",
                "coordinates": [
                  -77.61210699999998,
                  43.125648
                ]
              },
             "properties": {
                "name": "Teens Living with Cancer",
                "phoneFormatted": "(585) 563-6221",
                "phone": "5855636221",
                "address": "1000 Elmwood Avenue, Suite 300, Door #1",
                "city": "Rochester",
                "country": "United States",
                "postalCode": "14620",
                "state": "NY",
                "url": "http://www.teenslivingwithcancer.org/",
                "icon": "icons/family.png",
                "info": "Teens Living Cancer provides regular weekly activities for teens, both in the midst of cancer treatment and beyond it. Teens Living with Cancer's vision is that all teens with cancer have opportunities for life-affirming experiences throughout each stage of their disease. The TLC Center hosts regular activities and programs for teens to help guide them through the challenges of cancer. It also hosts a parent-networking group to help provide parents with support and resources to navigate their teen’s experience. Hospital visits by the program coordinator are regularly available, and usually serve as a newly diagnosed teen’s first introduction to the program. TLC also offers an online support community. <br><span style=\"font-weight: bold;\">Eligibility:<\/span> Teens living with cancer and their families." 
              }
            },
            {
              "type": "Feature",
              "geometry": {
                "type": "Point",
                "coordinates": [
                  -77.6056739,
                  43.125511
                ]
              },
             "properties": {
                "name": "Mended Hearts of Greater Rochester",
                "phoneFormatted": "(585) 234-1538",
                "phone": "5852341538",
                "address": "1200 Edgewood Avenue",
                "city": "Rochester",
                "country": "United States",
                "postalCode": "14617",
                "state": "NY",
                "hours":"Monthly meetings Mondays, Sept-June: see website for dates and hours",
                "url": "http://www.mendedheartsrochester.org",
                "icon": "icons/family.png",
                "info": "Mended Hearts is a national non-profit organization with over 300 chapters and satellites nationwide that offers hope and encouragement for recovery, and hope for a rich, full life for heart patients, their families and their caregivers. Mended Hearts works to bring together the patients, spouses, family members, friends, and medical professionals who are faced with the realities of heart disease in order to form a network of caring individuals. Services include an in-person visiting program, internet visits/phone support, group meetings, a generational outreach program, and an annual national conference. <br><span style=\"font-weight: bold;\">Eligibility:<\/span> Services available to patients recovering from heart procedures and surgery and their families. <br><a href=\"http://www.mendedheartsrochester.org/joinus/application.pdf \">Membership Application<\/a>" 
              }
            },
            {
              "type": "Feature",
              "geometry": {
                "type": "Point",
                "coordinates": [
                  -77.411021,
                  42.977278
                ]
              },
             "properties": {
                "name": "Mended Little Hearts of Greater Rochester",
                "phoneFormatted": "(585) 398-7112",
                "phone": "5853987112",
                "address": "200 Maple Avenue",
                "city": "Victor",
                "country": "United States",
                "postalCode": "14564",
                "state": "NY",
                "url": "https://mlhrochesterny.shutterfly.com/",
                "icon": "icons/family.png",
                "info": "The Mended Little Hearts program works nationally and in communities to support children with congenital heart defects and their families. Services include an in-person visiting program, internet visits/phone support, group meetings, a generational outreach program, and a national conference.  <br><span style=\"font-weight: bold;\">Eligibility:<\/span> Membership is free and open not only to parents and caregivers of children with heart conditions, but also to heart defect survivors, extended family members, healthcare partners, neighbors, friends and anyone else interested in furthering the outreach and support network of MLH.<br><a href=\"https://mendedlittlehearts.gnosishosting.net/Apply-For-Membership/Membership-Application \">Membership Application<\/a>" 
              }
            },
            {
              "type": "Feature",
              "geometry": {
                "type": "Point",
                "coordinates": [
                  -77.57953099999997,
                  43.1652656
                ]
              },
             "properties": {
                "name": "Mercy Outreach Center",
                "phoneFormatted": "(585) 288-2634",
                "phone": "5852882634",
                "address": "142 Webster Avenue",
                "city": "Rochester",
                "country": "United States",
                "postalCode": "14609",
                "state": "NY",
                "Hours": "M-F 9:00 a.m. - 5:00 p.m. Call for appointments.",
                "url": "http://www.mercycommunityservices.org/",
                "icon": "icons/medical.png",
                "info": "Mercy Outreach Center provides access to health care, dental care and other human services for the uninsured and underserved children, women and men of the greater Rochester area. These services are provided free of charge.  The Center also networks with various agencies and neighborhood groups to help access services beyond those provided at the Center, including referrals to public assistance, income tax support, and legal consultation. <br><span style=\"font-weight: bold;\">Eligibility:<\/span> Serves men, women and children who need primary health care and have no health insurance, people who need dental care and have no dental insurance, and people who have Medicaid who need chiropractic and other care that Medicaid does not cover." 
               }
              },
              {
              "type": "Feature",
              "geometry": {
                "type": "Point",
                "coordinates": [
                  -77.61745510000003,
                  43.1467452
                ]
              },
             "properties": {
                "name": "Mount Hope Family Center",
                "phoneFormatted": "(585) 275-2991",
                "phone": "5852752991",
                "address": "187 Edinburgh Street",
                "city": "Rochester",
                "country": "United States",
                "postalCode": "14608",
                "state": "NY",
                "url": "http://www.psych.rochester.edu/MHFC/",
                "icon": "icons/medical.png",
                "info": "The Mount Hope Family Center is a nationally recognized institute that has pioneered a community-supported, complete family approach to treatment and prevention.  Mt. Hope Preventive Programs provide resources parents and children need to build strong, healthy family and peer relationships.  All of the treatment programs are based on evidence-supported curricula. Services and programs include child and parent psychotherapy, parenting skills groups, and teen programs. <br><span style=\"font-weight: bold;\">Eligibility:<\/span> Serves families who have faced difficult circumstances, such as violence, maltreatment, loss, trauma, poverty, and drug and alcohol abuse.  Additionally, services are provided for children who are currently in foster care and those who are at risk for foster placement.  Support services also are provided for families who have military involvement and may have stress associated with parental deployment or other military-related challenges." 
              }
            },
            {
              "type": "Feature",
              "geometry": {
                "type": "Point",
                "coordinates": [
                  -77.5165781,
                 43.1014561
                ]
              },
             "properties": {
                "name": "Nazareth College Play Therapy Center for Children and Families",
                "phoneFormatted": "(585) 389-2545",
                "phone": "5853892545",
                "address": "4245 East Avenue",
                "city": "Rochester",
                "country": "United States",
                "postalCode": "14618",
                "state": "NY",
                "url": "https://www2.naz.edu/york-wellness-rehabilitation-institute/clinic-care/play-therapy/",
                "icon": "icons/medical.png",
                "info": "The Nazareth College Play Therapy Center The Play Therapy Center offers play therapy and affordable play therapy training for children, families, and professionals. Play therapy is appropriate for children experiencing a wide variety of social, emotional, behavioral, and learning problems, including anger management, grief and loss, divorce and family dissolution, physical and sexual abuse, domestic violence, crisis and trauma, anxiety, and depression.<br><span style=\"font-weight: bold;\">Eligibility:<\/span> Play therapy sessions are available for children ages 3 - 10." 
              }
            },
            {
              "type": "Feature",
              "geometry": {
                "type": "Point",
                "coordinates": [
                  -77.648439,
                 43.149662
                ]
              },
             "properties": {
                "name": "Nielson House",
                "phoneFormatted": "(585) 388-0801",
                "phone": "5853280801",
                "address": "383 West Ave",
                "city": "Rochester",
                "country": "United States",
                "postalCode": "14611",
                "state": "NY",
                "url": "http://spirituschristiprisonoutreach.org/index.php/programs/nielsen",
                "icon": "icons/medical.png",
                "info": "The Nielsen House is a residential facility under the Spiritus Christi Prison Outreach Program. The Nielsen House provides shelter and a structured residential program for men upon their release from prison, jail, inpatient and the streets. <br><span style=\"font-weight: bold;\">Eligibility:<\/span>  Nielsen House is available specifically for men who are released from jail. Acceptance criteria for men in the Nielsen House Program include an interview prior to admission.  Interviews are scheduled by the Program Staff for men who are interested in either the program at the Monroe County Jail or the Nielsen House Residency Program. The men who are accepted are required to live drug-free in a structured environment, and must be willing to receive chemical dependency evaluations and mental health evaluations, if necessary." 
              }
            },
            {
              "type": "Feature",
              "geometry": {
                "type": "Point",
                "coordinates": [
                  -77.6185615,
                 43.1684402
                ]
              },
             "properties": {
                "name": "Nurse Family Partnership",
                "phoneFormatted": "(585) 753-2229",
                "phone": "5857532229",
                "address": "691 St. Paul Street, 4th Floor",
                "city": "Rochester",
                "country": "United States",
                "postalCode": "14605",
                "state": "NY",
                "url": "http://www.nursefamilypartnership.org/locations/New-York/Monroe-County-NFP",
                "icon": "icons/medical.png",
                "info": "The Nurse Family Partnership Program (NFP) is a voluntary evidence-based nurse home visiting program that improves the health, well-being and self-sufficiency of low-income first-time parents and their children.  From pregnancy to the child’s 2 nd  birthday, specially trained nurses’ visit regularly with the mothers, fathers and extended family members to achieve the goals of improving pregnancy outcomes, improving child health and development and improving parents’ economic self-sufficiency. <br><span style=\"font-weight: bold;\">Eligibility:<\/span>  NFP serves low-income (using federal poverty guidelines), first-time mothers and their children by providing nurse home visitation services beginning early in pregnancy and continuing through the first 2 years of a child’s life.  Women voluntarily enroll as early as possible in pregnancy, but no later than 28 weeks gestation. <br>span style=\"font-weight: bold;\">Call to enroll or to make a referral.<\/span>" 
              }
            },
            {
              "type": "Feature",
              "geometry": {
                "type": "Point",
                "coordinates": [
                  -77.59948250000002,
                 43.1607458
                ]
              },
             "properties": {
                "name": "Planned Parenthood",
                "phoneFormatted": "(866) 600-6886",
                "phone": "8666006886",
                "address": "114 University Ave",
                "city": "Rochester",
                "country": "United States",
                "postalCode": "14605",
                "state": "NY",
                "hours": "M 7:30 a.m. - 5:00 p.m., T 9:00 a.m. - 6:30 p.m., W 7:30 a.m. - 5:00 p.m., Th 7:30 a.m. - 5:30 p.m., F 8:00 a.m. - 4:30 p.m.",
                "url": "https://www.plannedparenthood.org/health-center/new-york/rochester/14605/rochester-center---university-ave.-3332-91040",
                "icon": "icons/medical.png",
                "info": "Planned Parenthood is one of the nation's leading providers of high-quality, affordable health care for women, men, and young people, and the nation's largest provider of sex education. Planned Parenthood offers birth control, emergency contraception, HIV testing, STD testing, treatment and vaccines, pregnancy testing and services, abortion services, women's health care, men's health care, and rape and sexual assault support services. <br><span style=\"font-weight: bold;\">Eligibility:<\/span>  Accepts most health insurance, including Medicaid. If you are uninsured, you may qualify for a state-funded program or a lower fee scale. If you are uninsured and wish to qualify for this program, please bring the following documents: birth certificate, pay stub, photo ID, and proof of residence. If you plan to pay for your visit with a credit card that is not your own, you must bring a letter from the cardholder with you. <br><a href=\"https://www.docasap.com/mobile/cobranding/docasap_doctor_practice_schedule.php?&key_pracId=3332&key_map=1&key_lang=English&_ga=1.42032101.1397171139.1448240580&key_partner=PPFA \">Make an appointment online\/a>"
              }
            },
            {
              "type": "Feature",
              "geometry": {
                "type": "Point",
                "coordinates": [
                  -77.703687,
                 43.210537
                ]
              },
             "properties": {
                "name": "Planned Parenthood -Greece Health Center",
                "phoneFormatted": "(866) 600-6886",
                "phone": "8666006886",
                "address": "2824 W Ridge Road",
                "city": "Rochester",
                "country": "United States",
                "postalCode": "14626",
                "state": "NY",
                "hours": "M 7:30 a.m. - 3:30 p.m., T 8:00 a.m. - 4:30 p.m., W 8:00 a.m. - 4:30 p.m., Th 10:00 a.m. - 6:30 p.m., F 8:00 a.m. - 4:30 p.m.",
                "url": "https://www.plannedparenthood.org/health-center/new-york/rochester/14626/greece-center-2354-91040",
                "icon": "icons/medical.png",
                "info": "Planned Parenthood is one of the nation's leading providers of high-quality, affordable health care for women, men, and young people, and the nation's largest provider of sex education. Planned Parenthood offers birth control, emergency contraception, HIV testing, STD testing, treatment and vaccines, pregnancy testing and services, abortion services, women's health care and men's health care. <br><span style=\"font-weight: bold;\">Eligibility:<\/span>  Accepts most health insurance, including Medicaid. If you are uninsured, you may qualify for a state-funded program or a lower fee scale. If you are uninsured and wish to qualify for this program, please bring the following documents: birth certificate, pay stub, photo ID, and proof of residence. If you plan to pay for your visit with a credit card that is not your own, you must bring a letter from the cardholder with you. <br><a href=\"https://www.docasap.com/mobile/cobranding/docasap_doctor_practice_schedule.php?&key_pracId=2354&key_map=1&key_lang=English&_ga=1.247009860.1397171139.1448240580&key_partner=PPFA \">Make an appointment online\/a>"
              }
            }
          ]
        }